
[{"property":{"propertyID":85630,"name":"Curry Junction","formerName":"","streetAddress":"3549 Curry Lane","city":"Abilene","market":"Abilene","state":"TX","lat":3.240535500000000e+001,"lng":-9.977368000000000e+001}},{"property":{"propertyID":85631,"name":"Riatta Ranch","formerName":"","streetAddress":"1111 Musken","city":"Abilene","market":"Abilene","state":"TX","lat":3.245346100000000e+001,"lng":-9.970416200000000e+001}},{"property":{"propertyID":85633,"name":"Timber Ridge","formerName":"","streetAddress":"3602 Rolling Green Drive","city":"Abilene","market":"Abilene","state":"TX","lat":3.240015500000000e+001,"lng":-9.976907700000000e+001}},{"property":{"propertyID":85678,"name":"Indian Run","formerName":"","streetAddress":"3500 Cedar Run","city":"Abilene","market":"Abilene","state":"TX","lat":3.240334150000000e+001,"lng":-9.977437630000000e+001}},{"property":{"propertyID":85680,"name":"Warwick","formerName":"","streetAddress":"2400 Arrowhead","city":"Abilene","market":"Abilene","state":"TX","lat":3.239475100000000e+001,"lng":-9.975114000000001e+001}},{"property":{"propertyID":85681,"name":"Country Club Villas","formerName":"","streetAddress":"4450 Ridgemont Drive","city":"Abilene","market":"Abilene","state":"TX","lat":3.239640500000000e+001,"lng":-9.976508600000000e+001}},{"property":{"propertyID":85682,"name":"Reserve at Abilene","formerName":"","streetAddress":"3649 Cedar Run Road","city":"Abilene","market":"Abilene","state":"TX","lat":3.240266800000000e+001,"lng":-9.977136100000000e+001}},{"property":{"propertyID":85683,"name":"The Edge","formerName":"Cimarron","streetAddress":"500 North Judge Ely","city":"Abilene","market":"Abilene","state":"TX","lat":3.245231810000000e+001,"lng":-9.970676420000000e+001}},{"property":{"propertyID":85687,"name":"Residence at Heritage Park","formerName":"","streetAddress":"2789 E Lake Rd","city":"Abilene","market":"Abilene","state":"TX","lat":3.248379100000000e+001,"lng":-9.969030600000001e+001}},{"property":{"propertyID":85690,"name":"The Arch","formerName":"","streetAddress":"2702 N. Judge Ely Blvd","city":"Abilene","market":"Abilene","state":"TX","lat":3.248253200000000e+001,"lng":-9.970981700000000e+001}},{"property":{"propertyID":85691,"name":"Mesquite Square","formerName":"","streetAddress":"750 North Judge Ely Boulevard","city":"Abilene","market":"Abilene","state":"TX","lat":3.245523030000000e+001,"lng":-9.970627890000000e+001}},{"property":{"propertyID":85692,"name":"Sandpiper","formerName":"","streetAddress":"2102 Beechwood Lane","city":"Abilene","market":"Abilene","state":"TX","lat":3.247315600000000e+001,"lng":-9.976570200000001e+001}},{"property":{"propertyID":91741,"name":"Tylor Grand ","formerName":"","streetAddress":"3702 Rolling Green Dr.","city":"Abilene","market":"Abilene","state":"TX","lat":3.240017898380756e+001,"lng":-9.977183528244495e+001}},{"property":{"propertyID":100448,"name":"La Ventana","formerName":"","streetAddress":"2109 TX-351","city":"Abilene","market":"Abilene","state":"TX","lat":3.248252000000000e+001,"lng":-9.968717000000000e+001}},{"property":{"propertyID":100780,"name":"Canterbury Crossing","formerName":"","streetAddress":"1250 Yeomans Road","city":"Abilene","market":"Abilene","state":"TX","lat":3.244488500000000e+001,"lng":-9.970246100000000e+001}},{"property":{"propertyID":100851,"name":"University Park","formerName":"","streetAddress":"2150 North Judge Ely Boulevard","city":"Abilene","market":"Abilene","state":"TX","lat":3.247203100000000e+001,"lng":-9.970588700000000e+001}},{"property":{"propertyID":85605,"name":"The Eddison","formerName":"The Canyons at 45 West","streetAddress":"4101 SW 45th","city":"Amarillo","market":"Amarillo","state":"TX","lat":3.516365000000000e+001,"lng":-1.018810000000000e+002}},{"property":{"propertyID":85607,"name":"Red Oak Ranch","formerName":"","streetAddress":"5601 Bell St.","city":"Amarillo","market":"Amarillo","state":"TX","lat":3.514875100000000e+001,"lng":-1.019007800000000e+002}},{"property":{"propertyID":85609,"name":"Treepoint Meadows","formerName":"","streetAddress"
:"4600 S Virginia St","city":"Amarillo","market":"Amarillo","state":"TX","lat":3.516148000000000e+001,"lng":-1.018809000000000e+002}},{"property":{"propertyID":85610,"name":"Stonegate","formerName":"","streetAddress":"6400 Bell","city":"Amarillo","market":"Amarillo","state":"TX","lat":3.513967700000000e+001,"lng":-1.019030949000000e+002}},{"property":{"propertyID":85612,"name":"Tree Point Meadows","formerName":"","streetAddress":"4711 South Virginia","city":"Amarillo","market":"Amarillo","state":"TX","lat":3.515925500000000e+001,"lng":-1.018805790000000e+002}},{"property":{"propertyID":85613,"name":"Country Club Villas","formerName":"","streetAddress":"4401 South Coulter","city":"Amarillo","market":"Amarillo","state":"TX","lat":3.516305200000000e+001,"lng":-1.019187770000000e+002}},{"property":{"propertyID":85615,"name":"Newport","formerName":"","streetAddress":"6100 Southwest 45th","city":"Amarillo","market":"Amarillo","state":"TX","lat":3.516234500000000e+001,"lng":-1.019040930000000e+002}},{"property":{"propertyID":85747,"name":"Chasewood","formerName":"","streetAddress":"3420 South Coulte","city":"Amarillo","market":"Amarillo","state":"TX","lat":3.517548000000000e+001,"lng":-1.019215000000000e+002}},{"property":{"propertyID":85748,"name":"Dove Park","formerName":"","streetAddress":"7501 Seville","city":"Amarillo","market":"Amarillo","state":"TX","lat":3.516471000000000e+001,"lng":-1.019240000000000e+002}},{"property":{"propertyID":85749,"name":"The Little Armadillo","formerName":"Kensington","streetAddress":"1524 Bell St","city":"Amarillo","market":"Amarillo","state":"TX","lat":3.519800300000000e+001,"lng":-1.019031530000000e+002}},{"property":{"propertyID":85750,"name":"Huntington Pointe","formerName":"","streetAddress":"6801 Wolflin","city":"Amarillo","market":"Amarillo","state":"TX","lat":3.519041300000000e+001,"lng":-1.019135670000000e+002}},{"property":{"propertyID":85751,"name":"Renaissance","formerName":"","streetAddress":"8200 Amarillo Blvd","city":"Amarillo","market":"Amarillo","state"
:"TX","lat":3.522188260000000e+001,"lng":-1.018769493000000e+002}},{"property":{"propertyID":85752,"name":"Town Parc","formerName":"","streetAddress":"6501 Woodward St.","city":"Amarillo","market":"Amarillo","state":"TX","lat":3.519464500000000e+001,"lng":-1.019112320000000e+002}},{"property":{"propertyID":85753,"name":"Rock Island","formerName":"Willow Glen","streetAddress":"7101 Wolflin","city":"Amarillo","market":"Amarillo","state":"TX","lat":3.518989100000000e+001,"lng":-1.019187770000000e+002}},{"property":{"propertyID":85760,"name":"The Enclave","formerName":"Tiffany","streetAddress":"6209 I40 West","city":"Amarillo","market":"Amarillo","state":"TX","lat":3.519990060000000e+001,"lng":-1.019085851000000e+002}},{"property":{"propertyID":89115,"name":"Buffalo Springs","formerName":"Canyon Ranch","streetAddress":"4615 S. Virginia","city":"Amarillo","market":"Amarillo","state":"TX","lat":3.516096000000000e+001,"lng":-1.018790000000000e+002}},{"property":{"propertyID":89117,"name":"Amarillo Square","formerName":"Paramount Terrace","streetAddress":"4210 Paramount Blvd","city":"Amarillo","market":"Amarillo","state":"TX","lat":3.516593500000000e+001,"lng":-1.018867020000000e+002}},{"property":{"propertyID":89127,"name":"Lambie Lane","formerName":"","streetAddress":"4302 W 51st Avenue","city":"Amarillo","market":"Amarillo","state":"TX","lat":3.515391300000000e+001,"lng":-1.018850526000000e+002}},{"property":{"propertyID":107152,"name":"Hunters Crossing","formerName":"","streetAddress":"1800 Wisdom Dr.","city":"Amarillo","market":"Amarillo","state":"TX","lat":3.519434700000000e+001,"lng":-1.019080880000000e+002}},{"property":{"propertyID":139048,"name":"Windtree","formerName":"","streetAddress":"631 Brennan Blvd","city":"Amarillo","market":"Amarillo","state":"TX","lat":3.517446000000000e+001,"lng":-1.019241000000000e+002}}]